City_ID,City,Lat,Lng,Max Temp,Humidity,Cloudiness,Wind Speed,Country,Description
0,Taltal,-25.4,-70.4833,64.53,80,8,6.08,CL,clear sky
1,Yarada,17.65,83.2667,82.36,69,31,10.0,IN,scattered clouds
2,Hermanus,-34.4187,19.2345,64.99,91,100,11.1,ZA,light rain
3,Altay,47.8667,88.1167,47.75,47,74,4.5,CN,broken clouds
4,Chokurdakh,70.6333,147.9167,10.83,90,66,13.04,RU,broken clouds
5,Ribeira Grande,38.5167,-28.7,61.59,83,82,7.34,PT,broken clouds
6,Carbonia,39.1672,8.5222,44.01,87,20,2.3,IT,few clouds
7,Liuzhou,24.3126,109.3892,64.36,93,100,4.36,CN,overcast clouds
8,Mataura,-46.1927,168.8643,64.0,69,67,5.01,NZ,broken clouds
9,Kapaa,22.0752,-159.319,80.6,57,40,13.8,US,scattered clouds
10,Deniliquin,-35.5333,144.9667,66.99,54,100,6.76,AU,overcast clouds
11,Istok,42.7808,20.4875,41.0,81,75,8.05,XK,broken clouds
12,Khatanga,71.9667,102.5,-0.54,94,86,9.15,RU,overcast clouds
13,Ushuaia,-54.8,-68.3,53.6,62,40,6.91,AR,scattered clouds
14,Havre-Saint-Pierre,50.2334,-63.5986,37.4,87,90,9.6,CA,overcast clouds
15,Mar Del Plata,-38.0023,-57.5575,66.99,88,0,5.75,AR,clear sky
16,Busselton,-33.65,115.3333,62.01,82,100,10.25,AU,overcast clouds
17,Punta Arenas,-53.15,-70.9167,48.0,87,0,6.91,CL,clear sky
18,Shaki,41.0833,47.1667,62.6,88,40,5.75,AZ,scattered clouds
19,Esperance,-33.8667,121.9,66.2,72,67,5.75,AU,broken clouds
20,Sibut,5.718,19.0739,71.78,87,100,4.88,CF,overcast clouds
21,Penzance,50.1186,-5.5371,46.0,87,90,10.36,GB,overcast clouds
22,Launceston,-41.45,147.1667,62.01,63,90,19.57,AU,overcast clouds
23,Victoria,22.2855,114.1577,73.0,69,100,1.01,HK,overcast clouds
24,Tiksi,71.6872,128.8694,10.74,82,95,11.68,RU,overcast clouds
25,Yellowknife,62.456,-114.3525,41.0,52,20,10.36,CA,few clouds
26,Saint-Augustin,51.226,-58.6502,36.7,95,100,23.82,CA,overcast clouds
27,Kavieng,-2.5744,150.7967,83.91,72,97,6.64,PG,overcast clouds
28,Puerto Baquerizo Moreno,-0.9,-89.6,76.93,88,100,4.12,EC,overcast clouds
29,Cabo San Lucas,22.8909,-109.9124,73.99,56,1,11.5,MX,clear sky
30,Tasiilaq,65.6145,-37.6368,15.8,73,0,14.97,GL,clear sky
31,Berbera,10.4396,45.0143,80.24,81,96,7.09,SO,overcast clouds
32,Sayla,22.55,71.4667,79.5,62,7,12.84,IN,clear sky
33,Husavik,66.0449,-17.3389,35.6,64,40,16.11,IS,scattered clouds
34,Torbay,47.6666,-52.7314,36.0,100,90,6.91,CA,light rain
35,Rikitea,-23.1203,-134.9692,77.92,75,11,6.91,PF,few clouds
36,College,64.8569,-147.8028,62.6,22,20,2.55,US,few clouds
37,Necochea,-38.5473,-58.7368,62.01,91,86,3.0,AR,overcast clouds
38,La Ronge,55.1001,-105.2842,37.4,35,100,11.5,CA,overcast clouds
39,Thompson,55.7435,-97.8558,28.4,46,75,12.66,CA,broken clouds
40,Pitimbu,-7.4706,-34.8086,73.4,100,40,4.61,BR,scattered clouds
41,Caravelas,-17.7125,-39.2481,73.72,93,14,6.6,BR,few clouds
42,San Jose Del Guaviare,2.5729,-72.6459,73.22,96,100,3.91,CO,heavy intensity rain
43,Tuim,54.3417,89.9261,38.28,88,100,18.12,RU,light rain
44,New Norfolk,-42.7826,147.0587,64.0,70,100,5.01,AU,overcast clouds
45,Bambous Virieux,-20.3428,57.7575,78.8,83,75,9.22,MU,light rain
46,Geraldton,-28.7667,114.6,66.2,55,0,14.97,AU,clear sky
47,Bredasdorp,-34.5322,20.0403,66.2,82,98,4.61,ZA,light rain
48,Avarua,-21.2078,-159.775,84.2,74,40,17.27,CK,light rain
49,Deogarh,21.5333,84.7333,77.22,64,0,1.5,IN,clear sky
50,Nisia Floresta,-6.0911,-35.2086,77.0,94,40,2.3,BR,light rain
51,Riyadh,24.6877,46.7219,75.2,23,0,3.44,SA,clear sky
52,Hilo,19.7297,-155.09,80.6,57,40,11.5,US,scattered clouds
53,Atuona,-9.8,-139.0333,80.28,79,18,18.79,PF,few clouds
54,Challapata,-18.9,-66.7667,50.52,24,0,3.78,BO,clear sky
55,Sur,22.5667,59.5289,80.53,57,100,3.83,OM,overcast clouds
56,East London,-33.0153,27.9116,74.48,29,0,7.14,ZA,clear sky
57,Robe,-37.1833,139.75,62.85,73,100,15.52,AU,overcast clouds
58,Gewane,10.1664,40.6453,77.43,60,100,5.37,ET,overcast clouds
59,Provideniya,64.3833,-173.3,30.2,69,0,6.71,RU,clear sky
60,Suhl,50.6,10.7,41.0,90,73,2.19,DE,broken clouds
61,Kaitangata,-46.2817,169.8464,64.38,52,27,9.71,NZ,scattered clouds
62,Tuktoyaktuk,69.4541,-133.0374,35.6,75,20,12.66,CA,few clouds
63,Jilib,0.4883,42.7854,76.26,91,96,4.05,SO,overcast clouds
64,Butaritari,3.0707,172.7902,83.37,74,95,14.32,KI,overcast clouds
65,Pinheiro Machado,-31.5783,-53.3811,57.0,95,0,13.0,BR,clear sky
66,Georgetown,5.4112,100.3354,84.2,89,20,2.3,MY,few clouds
67,Elko,41.0002,-115.5012,66.2,11,1,13.8,US,clear sky
68,Aracuai,-16.8497,-42.0703,69.33,81,2,2.59,BR,clear sky
69,Andijon,40.7821,72.3442,48.99,89,15,11.99,UZ,few clouds
70,Kodiak,57.79,-152.4072,50.0,66,40,18.41,US,scattered clouds
71,Jamestown,42.097,-79.2353,48.0,76,40,9.22,US,scattered clouds
72,Kusti,13.1629,32.6635,83.53,10,6,7.85,SD,clear sky
73,Richards Bay,-28.783,32.0377,64.09,75,0,12.15,ZA,clear sky
74,Kayes,14.0,-11.0,96.21,14,98,6.62,ML,overcast clouds
75,Nemuro,43.3236,145.575,48.2,61,75,11.5,JP,broken clouds
76,Shuangcheng,45.35,126.2833,57.2,38,0,6.71,CN,clear sky
77,Cidreira,-30.1811,-50.2056,70.39,72,2,10.76,BR,clear sky
78,Barrow,71.2906,-156.7887,26.6,80,1,9.22,US,clear sky
79,Hobart,-42.8794,147.3294,64.0,48,75,19.57,AU,broken clouds
80,Salamiyah,35.0113,37.0532,74.12,27,100,8.81,SY,overcast clouds
81,Cockburn Town,21.4612,-71.1419,78.8,83,20,9.22,TC,few clouds
82,Nicolas Bravo,18.45,-88.9167,84.2,84,90,11.5,MX,overcast clouds
83,Chililabombwe,-12.3648,27.8229,52.14,94,100,4.25,ZM,overcast clouds
84,Raditsa-Krylovka,53.3171,34.3574,41.0,93,100,6.71,RU,overcast clouds
85,Chuy,-33.6971,-53.4616,62.65,76,5,7.81,UY,clear sky
86,Kahului,20.8947,-156.47,78.8,73,40,19.57,US,scattered clouds
87,Champerico,14.3,-91.9167,86.0,74,75,6.91,GT,broken clouds
88,Carnarvon,-24.8667,113.6333,77.0,64,0,19.01,AU,clear sky
89,Varhaug,58.6147,5.6457,37.99,87,0,5.44,NO,clear sky
90,Puerto Madryn,-42.7692,-65.0385,67.77,54,55,13.51,AR,broken clouds
91,Cape Town,-33.9258,18.4232,66.99,94,0,13.8,ZA,clear sky
92,Albany,42.6001,-73.9662,50.0,66,90,4.45,US,overcast clouds
93,Ayan,56.45,138.1667,30.88,96,100,10.51,RU,light snow
94,Saint George,37.1041,-113.5841,73.99,7,1,5.95,US,clear sky
95,Funtua,11.5233,7.3081,78.94,49,100,7.54,NG,overcast clouds
96,Batagay-Alyta,67.8006,130.4114,11.28,85,100,4.32,RU,overcast clouds
97,Bereda,43.2686,-7.5406,48.99,89,100,1.99,ES,overcast clouds
98,Monrovia,6.3005,-10.7969,80.91,78,19,7.92,LR,few clouds
99,Namatanai,-3.6667,152.4333,86.9,64,95,4.27,PG,overcast clouds
100,Igarka,67.4667,86.5833,-6.3,88,5,12.75,RU,clear sky
101,Narrabri,-30.3167,149.7833,70.0,37,0,8.05,AU,clear sky
102,Iqaluit,63.7506,-68.5145,15.8,79,75,5.75,CA,broken clouds
103,Hasaki,35.7333,140.8333,63.0,31,0,20.71,JP,clear sky
104,Dhanwar,24.4167,85.9833,81.36,16,0,6.02,IN,clear sky
105,Vestmanna,62.1564,-7.1664,42.8,93,40,6.91,FO,scattered clouds
106,Mgandu,-5.95,34.1333,60.06,93,93,7.43,TZ,overcast clouds
107,Hirosaki,40.5931,140.4725,54.0,62,75,23.02,JP,broken clouds
108,Port Alfred,-33.5906,26.891,74.53,33,0,9.57,ZA,clear sky
109,Bukama,-9.2,25.85,66.22,83,100,1.36,CD,overcast clouds
110,Saldanha,-33.0117,17.9442,62.6,88,44,5.75,ZA,scattered clouds
111,Neiafu,-18.65,-173.9833,84.2,65,20,5.75,TO,few clouds
112,Nikolskoye,59.7035,30.7861,42.8,65,0,4.47,RU,clear sky
113,Mahebourg,-20.4081,57.7,78.8,83,75,9.22,MU,light rain
114,Takoradi,4.8845,-1.7554,78.24,82,100,3.04,GH,overcast clouds
115,Bengkulu,-3.8004,102.2655,77.29,83,27,3.44,ID,scattered clouds
116,Barabai,-2.5833,115.3833,79.79,80,100,1.21,ID,overcast clouds
117,Rostovka,55.3842,71.8891,17.24,51,31,14.5,RU,scattered clouds
118,Bluff,-46.6,168.3333,58.53,72,65,19.39,NZ,broken clouds
119,Kashi,39.4547,75.9797,59.0,18,40,15.66,CN,scattered clouds
120,Yumen,40.2833,97.2,53.02,32,67,13.38,CN,broken clouds
121,Harper,4.375,-7.7169,80.49,80,100,6.31,LR,overcast clouds
122,Borovoy,55.4333,86.0833,26.6,86,75,31.32,RU,snow
123,Porbandar,21.6422,69.6093,78.75,83,22,9.4,IN,few clouds
124,Karratha,-20.7377,116.8463,82.18,60,0,1.77,AU,clear sky
125,Saint-Pierre,-21.3393,55.4781,75.2,78,90,13.8,RE,overcast clouds
126,Ous,60.9058,61.5186,22.19,68,10,4.41,RU,clear sky
127,Maniitsoq,65.4167,-52.9,14.45,62,86,13.73,GL,overcast clouds
128,Izmit,40.7669,29.9169,50.0,100,75,8.05,TR,broken clouds
129,Jalu,29.0331,21.5482,75.52,32,100,9.95,LY,overcast clouds
130,Yar-Sale,66.8333,70.8333,-2.45,99,91,7.47,RU,overcast clouds
131,Mezhdurechenskiy,59.6,65.9333,19.65,56,100,6.6,RU,overcast clouds
132,Sao Filipe,14.8961,-24.4956,72.43,71,20,7.96,CV,few clouds
133,Roebourne,-20.7833,117.1333,82.38,56,0,2.24,AU,clear sky
134,Ust-Ishim,57.6935,71.1665,14.0,60,7,9.35,RU,clear sky
135,Ypsonas,34.6884,32.9574,73.4,43,100,7.09,CY,overcast clouds
136,Grand Baie,-20.0182,57.5802,78.01,82,25,5.01,MU,scattered clouds
137,Port Elizabeth,-33.918,25.5701,71.6,37,0,31.07,ZA,clear sky
138,Portland,45.5234,-122.6762,80.6,21,20,9.22,US,few clouds
139,Lompoc,34.6391,-120.4579,59.0,82,0,14.97,US,clear sky
140,Lahaina,20.8783,-156.6825,78.8,73,40,19.57,US,scattered clouds
141,Yatou,37.15,122.3833,61.14,43,0,13.78,CN,clear sky
142,Ancud,-41.8697,-73.8203,57.2,100,90,16.11,CL,light rain
143,Tucuman,-26.8241,-65.2226,73.4,88,75,2.1,AR,broken clouds
144,Rafai,4.95,23.9167,68.65,93,100,2.39,CF,overcast clouds
145,Derzhavinsk,51.1,66.3167,29.23,61,8,20.51,KZ,clear sky
146,Balezino,57.9796,53.0106,27.12,73,1,7.78,RU,clear sky
147,Viedma,-40.8135,-62.9967,68.13,77,64,12.86,AR,broken clouds
148,Pervomaysk,48.0443,30.8507,46.89,77,100,5.23,UA,overcast clouds
149,Ilulissat,69.2167,-51.1,12.2,57,62,11.5,GL,broken clouds
150,Opuwo,-18.0607,13.84,71.35,42,94,8.57,NA,overcast clouds
151,Kupang,-10.1667,123.5833,81.66,65,99,7.16,ID,overcast clouds
152,Blagoyevo,63.3667,47.9167,26.67,72,20,2.44,RU,few clouds
153,Tautira,-17.7333,-149.15,86.0,66,20,9.22,PF,few clouds
154,Saint-Philippe,-21.3585,55.7679,77.0,78,90,13.8,RE,overcast clouds
155,Carahue,-38.7,-73.1667,62.6,72,0,5.75,CL,clear sky
156,Vao,-22.6667,167.4833,77.41,79,100,11.32,NC,overcast clouds
157,Qaanaaq,77.484,-69.3632,3.09,78,99,4.92,GL,overcast clouds
158,Sesheke,-17.4759,24.2968,57.6,82,0,4.63,ZM,clear sky
159,Asau,46.4333,26.4,41.0,66,100,1.25,RO,overcast clouds
160,Upernavik,72.7868,-56.1549,3.27,88,100,4.68,GL,overcast clouds
161,Santa Cruz,-17.8,-63.1667,70.47,92,13,4.21,BO,few clouds
162,Arraial Do Cabo,-22.9661,-42.0278,75.2,88,75,5.75,BR,broken clouds
163,Lorengau,-2.0226,147.2712,81.93,77,100,9.86,PG,overcast clouds
164,Ponta Do Sol,32.6667,-17.1,57.99,73,4,1.99,PT,clear sky
165,Nanortalik,60.1432,-45.2371,29.16,56,24,8.21,GL,few clouds
166,Lavrentiya,65.5833,-171.0,31.44,87,85,5.03,RU,overcast clouds
167,Bulgan,48.8125,103.5347,40.87,44,0,3.85,MN,clear sky
168,Jumla,29.2747,82.1838,44.53,55,0,3.51,NP,clear sky
169,Thinadhoo,0.5333,72.9333,82.44,64,27,7.54,MV,scattered clouds
170,Fairbanks,64.8378,-147.7164,62.6,33,1,4.61,US,clear sky
171,Vaini,-21.2,-175.2,80.6,78,20,9.22,TO,few clouds
172,Vila Franca Do Campo,37.7167,-25.4333,59.0,82,20,5.75,PT,few clouds
173,Te Anau,-45.4167,167.7167,55.8,76,90,7.85,NZ,overcast clouds
174,Mokobeng,-22.9965,27.6678,56.28,62,0,3.56,BW,clear sky
175,Meulaboh,4.1363,96.1285,76.64,86,100,1.92,ID,overcast clouds
176,Nalut,30.3333,10.85,57.25,31,66,12.64,LY,broken clouds
177,Norman Wells,65.282,-126.8329,50.0,40,1,11.5,CA,clear sky
178,Sayat,38.7839,63.8803,57.2,54,0,6.91,TM,clear sky
179,Laguna,38.421,-121.4238,89.6,6,1,8.05,US,clear sky
180,Bubaque,11.2833,-15.8333,76.78,74,38,11.9,GW,scattered clouds
181,San Cristobal,7.7669,-72.225,84.2,54,40,6.91,VE,scattered clouds
182,Sisimiut,66.9395,-53.6735,16.86,65,100,14.61,GL,overcast clouds
183,Boa Vista,2.8197,-60.6733,82.4,61,0,9.22,BR,clear sky
184,Lebu,-37.6167,-73.65,55.44,86,67,10.02,CL,broken clouds
185,Lashio,22.9333,97.75,73.02,48,27,1.32,MM,scattered clouds
186,Kulhudhuffushi,6.6221,73.07,83.89,72,80,7.61,MV,broken clouds
187,Cherskiy,68.75,161.3,22.53,80,59,16.6,RU,broken clouds
188,Merrill,45.1805,-89.6835,55.4,40,40,3.44,US,scattered clouds
189,Baykit,61.67,96.37,24.03,90,100,2.55,RU,overcast clouds
190,Manzhouli,49.6,117.4333,34.9,14,0,14.0,CN,clear sky
191,Nuuk,64.1835,-51.7216,24.8,54,40,12.66,GL,scattered clouds
192,Cayenne,4.9333,-52.3333,80.01,88,100,2.3,GF,overcast clouds
193,Kununurra,-15.7667,128.7333,84.2,26,8,11.5,AU,clear sky
194,Buraydah,26.326,43.975,68.0,40,0,4.61,SA,clear sky
195,Koping,59.514,15.9926,41.0,74,9,5.75,SE,clear sky
196,Zhangye,38.9342,100.4517,57.47,19,100,5.79,CN,overcast clouds
197,Sitka,57.0531,-135.33,66.2,27,1,11.5,US,clear sky
198,Port Hardy,50.6996,-127.4199,66.2,45,1,8.05,CA,clear sky
199,Sijunjung,-0.6876,100.9537,74.91,86,14,1.77,ID,few clouds
200,Lasa,46.6166,10.7002,37.99,80,0,8.05,IT,clear sky
201,Synya,65.3718,58.0387,7.97,97,90,1.21,RU,overcast clouds
202,Atar,20.5169,-13.0499,79.56,14,97,6.87,MR,overcast clouds
203,Yakima,46.4665,-120.6678,82.4,13,1,16.11,US,clear sky
204,Prince Rupert,54.3161,-130.3201,68.0,24,1,12.66,CA,clear sky
205,Padang,-0.9492,100.3543,79.75,79,13,1.68,ID,few clouds
206,Clyde River,70.4692,-68.5914,1.4,92,90,9.22,CA,light snow
207,Henties Bay,-22.116,14.2845,84.99,42,2,5.99,NA,clear sky
208,Mandalgovi,45.7625,106.2708,44.19,45,93,12.12,MN,overcast clouds
209,Port Lincoln,-34.7333,135.8667,63.59,62,35,13.98,AU,scattered clouds
210,Dolores,-36.3132,-57.6792,60.76,94,100,6.89,AR,overcast clouds
211,Antalaha,-14.9003,50.2788,74.82,91,73,11.65,MG,light rain
212,Airai,-8.9266,125.4092,69.71,48,53,2.8,TL,broken clouds
213,Porto Belo,-27.1578,-48.5531,73.99,94,0,6.91,BR,clear sky
214,Talnakh,69.4865,88.3972,-9.65,91,56,3.18,RU,broken clouds
215,Thunder Bay,48.4001,-89.3168,39.99,93,90,10.36,CA,moderate rain
216,Flin Flon,54.7682,-101.865,29.66,42,10,9.64,CA,clear sky
217,Pisco,-13.7,-76.2167,66.2,82,0,8.05,PE,clear sky
218,Acari,-15.4311,-74.6158,73.18,72,5,2.28,PE,clear sky
219,Castro,-24.7911,-50.0119,56.37,98,7,5.26,BR,clear sky
220,Bilma,18.6853,12.9164,84.38,7,83,7.47,NE,broken clouds
221,Araouane,18.9048,-3.5265,80.47,10,2,10.6,ML,clear sky
222,Soyo,-6.1349,12.3689,80.33,88,99,3.4,AO,light rain
223,Hithadhoo,-0.6,73.0833,82.51,65,68,7.63,MV,broken clouds
224,Kinshasa,-4.3246,15.3215,77.0,88,100,2.3,CD,moderate rain
225,Ust-Maya,60.4167,134.5333,36.66,71,100,10.89,RU,overcast clouds
226,Mafinga,-7.25,35.0667,62.55,86,7,3.31,TZ,clear sky
227,Dikson,73.5069,80.5464,-8.88,100,100,6.91,RU,overcast clouds
228,Gat,31.61,34.7642,81.0,32,97,4.0,IL,overcast clouds
229,Ketchikan,55.3422,-131.6461,69.8,26,1,16.11,US,clear sky
230,Gorontalo,0.5412,123.0595,81.88,80,94,3.33,ID,light rain
231,Acarau,-2.8856,-40.12,76.98,88,100,9.48,BR,overcast clouds
232,Ocosingo,17.0667,-92.25,62.87,92,100,2.93,MX,overcast clouds
233,Karatau,43.1667,70.4667,58.05,43,100,9.84,KZ,light rain
234,Bonthe,7.5264,-12.505,81.12,78,39,3.2,SL,scattered clouds
235,Ngunguru,-35.6167,174.5,63.64,59,71,8.86,NZ,broken clouds
236,Puerto Ayora,-0.7393,-90.3518,77.0,96,100,4.0,EC,overcast clouds
237,Chernyshevskiy,63.0128,112.4714,13.59,86,75,1.54,RU,broken clouds
238,Paita,-5.0892,-81.1144,70.09,82,82,8.34,PE,broken clouds
239,Grindavik,63.8424,-22.4338,33.8,69,75,5.75,IS,light snow
240,Boende,-0.2167,20.8667,71.74,99,100,2.77,CD,light rain
241,Luanda,-8.8368,13.2343,80.6,94,20,3.44,AO,few clouds
242,Anito,12.4497,125.2886,74.61,93,100,29.51,PH,moderate rain
243,Kuching,1.55,110.3333,80.6,83,20,3.44,MY,few clouds
244,San Patricio,28.017,-97.5169,63.0,77,90,7.49,US,overcast clouds
245,Tanout,14.9709,8.8879,80.78,9,0,3.31,NE,clear sky
246,Muborak,39.2553,65.1528,62.67,47,12,7.92,UZ,few clouds
247,Yichang,30.7144,111.2847,63.18,69,11,2.39,CN,few clouds
248,Shakawe,-18.3667,21.85,57.25,52,0,5.66,BW,clear sky
249,Srednekolymsk,67.45,153.6833,25.23,77,55,8.28,RU,broken clouds
250,The Pas,53.8251,-101.2541,32.0,47,1,8.05,CA,clear sky
251,San Quintin,30.4833,-115.95,66.51,58,0,9.04,MX,clear sky
252,Kuroiso,36.9667,140.05,48.2,61,75,10.36,JP,broken clouds
253,Ahipara,-35.1667,173.1667,65.84,52,82,4.97,NZ,broken clouds
254,Santa Maria,-29.6842,-53.8069,68.0,77,40,5.75,BR,scattered clouds
255,Akdepe,42.0551,59.3788,64.4,51,0,4.61,TM,clear sky
256,Rorvik,64.8621,11.2373,41.5,81,0,10.87,NO,clear sky
257,Tura,25.5198,90.2201,69.31,85,0,4.09,IN,clear sky
258,Baruun-Urt,46.6806,113.2792,39.88,18,0,12.97,MN,clear sky
259,Narsaq,60.9167,-46.05,28.4,34,75,5.75,GL,broken clouds
260,Saskylakh,71.9167,114.0833,4.44,90,94,9.37,RU,overcast clouds
261,Katsuura,35.1333,140.3,64.4,39,0,16.11,JP,clear sky
262,Cambre,43.2944,-8.3474,57.0,76,0,2.75,ES,clear sky
263,Placido De Castro,-10.3353,-67.1856,74.86,92,99,2.21,BR,overcast clouds
264,Kruisfontein,-34.0033,24.7314,66.81,51,6,16.98,ZA,clear sky
265,Praya,14.9215,-23.5087,69.8,78,20,12.66,CV,few clouds
266,Labuhan,-6.8844,112.2051,79.88,77,57,5.57,ID,broken clouds
267,Pangnirtung,66.1451,-65.7125,4.6,85,64,7.27,CA,broken clouds
268,Vila Velha,-20.3297,-40.2925,77.0,83,40,6.91,BR,scattered clouds
269,Salalah,17.0151,54.0924,78.8,65,0,2.3,OM,clear sky
270,Atbasar,51.8,68.3333,26.85,53,7,16.71,KZ,clear sky
271,Grand Gaube,-20.0064,57.6608,78.01,82,21,5.01,MU,few clouds
272,Luderitz,-26.6481,15.1594,73.6,46,9,4.5,NA,clear sky
273,Sumenep,-7.0167,113.8667,81.68,75,14,3.89,ID,few clouds
274,Praia Da Vitoria,38.7333,-27.0667,60.01,82,20,4.32,PT,few clouds
275,Masunga,-20.6246,27.4488,49.73,72,0,7.9,BW,clear sky
276,Pecos,31.4229,-103.4932,59.0,36,1,6.91,US,clear sky
277,Kuytun,54.3419,101.5036,34.88,50,100,14.56,RU,overcast clouds
278,Aksarka,66.5606,67.7975,-4.58,91,99,4.0,RU,overcast clouds
279,Maxixe,-23.8597,35.3472,65.03,78,16,2.8,MZ,few clouds
280,Domoni,-12.2569,44.5319,77.56,88,32,6.31,KM,light rain
281,San,13.3034,-4.8956,89.29,14,72,8.41,ML,broken clouds
282,Faanui,-16.4833,-151.75,82.67,69,0,13.18,PF,clear sky
283,Chagoda,59.164,35.3285,36.28,81,81,6.26,RU,broken clouds
284,Simpang,-1.2667,104.0833,80.26,77,32,3.11,ID,scattered clouds
285,Komsomolskiy,40.4272,71.7189,48.2,76,11,4.61,UZ,few clouds
286,Zabol,32.25,67.25,54.88,23,100,4.41,AF,overcast clouds
287,Nyurba,63.2842,118.3319,16.09,82,100,4.88,RU,overcast clouds
288,Hirara,24.8,125.2833,73.4,60,40,18.41,JP,scattered clouds
289,Bilibino,68.0546,166.4372,26.73,87,100,16.71,RU,light snow
290,Ibra,22.6906,58.5334,74.32,43,90,1.39,OM,overcast clouds
291,Portsmouth,50.799,-1.0913,45.0,100,11,1.14,GB,few clouds
292,Ureki,41.9956,41.7786,66.2,63,75,24.16,GE,broken clouds
293,Santo Antonio Do Ica,-3.1022,-67.9397,71.92,99,93,1.57,BR,overcast clouds
294,Nioro,13.35,-15.75,82.42,35,47,4.25,GM,scattered clouds
295,Souillac,-20.5167,57.5167,78.8,83,75,9.22,MU,broken clouds
296,Sao Jose Da Coroa Grande,-8.8978,-35.1478,77.74,82,99,6.69,BR,overcast clouds
297,Mount Isa,-20.7333,139.5,84.2,23,5,11.5,AU,clear sky
298,Conceicao Do Araguaia,-8.2578,-49.2647,75.2,94,0,1.14,BR,clear sky
299,Kamalpur,24.2,91.8333,80.6,89,75,3.44,IN,light rain
300,Cheney,47.4874,-117.5758,73.4,16,75,16.11,US,broken clouds
301,Ouesso,1.6136,16.0517,72.43,96,100,1.92,CG,overcast clouds
302,Det Udom,14.906,105.0784,87.01,74,90,2.3,TH,overcast clouds
303,Saint-Joseph,-21.3667,55.6167,75.2,78,90,13.8,RE,overcast clouds
304,Singkang,2.1006,102.7994,80.6,83,20,1.14,MY,few clouds
305,Hearst,49.6835,-83.6665,48.2,34,100,4.61,CA,overcast clouds
306,Funadhoo,6.15,73.2667,84.15,70,100,8.59,MV,overcast clouds
307,West Bay,19.3667,-81.4167,82.4,74,20,9.22,KY,few clouds
308,Hofn,64.2539,-15.2082,38.62,70,14,17.31,IS,few clouds
309,Rio Bananal,-19.265,-40.3333,70.48,96,13,2.01,BR,few clouds
310,Egvekinot,66.3167,-179.1667,27.79,98,100,12.46,RU,light snow
311,Athens,37.9795,23.7162,60.01,82,20,3.47,GR,few clouds
312,Valparaiso,-33.0393,-71.6273,55.99,94,20,4.61,CL,few clouds
313,Tahoua,14.8888,5.2692,87.8,23,0,5.48,NE,clear sky
314,Auki,-8.7676,160.7034,86.13,66,77,2.44,SB,broken clouds
315,Mulege,26.8833,-111.9833,74.86,34,0,9.46,MX,clear sky
316,Aleksandrov Gay,50.147,48.5704,53.42,75,100,6.91,RU,overcast clouds
317,Chimbote,-9.0853,-78.5783,67.42,85,97,7.2,PE,overcast clouds
318,Takestan,36.0696,49.6959,51.8,54,0,2.3,IR,clear sky
319,Mandiana,10.6333,-8.6833,85.73,29,88,3.15,GN,overcast clouds
320,Slamannan,55.9373,-3.8331,46.99,87,0,1.14,GB,clear sky
321,Puerto Escondido,15.85,-97.0667,80.6,74,1,4.61,MX,clear sky
322,Namibe,-15.1961,12.1522,81.45,68,0,2.62,AO,clear sky
323,Burnie,-41.0667,145.9167,61.0,64,100,7.0,AU,overcast clouds
324,Krasnoselkup,65.7,82.4667,-6.03,92,6,18.19,RU,clear sky
325,Itatiba,-23.0058,-46.8389,66.99,82,75,5.75,BR,broken clouds
326,Ostrovnoy,68.0531,39.5131,29.48,80,100,19.46,RU,overcast clouds
327,Klaksvik,62.2266,-6.589,42.8,87,40,8.05,FO,scattered clouds
328,Coquimbo,-29.9533,-71.3436,57.2,82,90,3.44,CL,overcast clouds
329,Vila,42.0304,-8.1588,54.0,71,100,1.99,PT,light rain
330,Le Port,-20.9373,55.2919,77.0,69,90,13.8,RE,overcast clouds
331,Jiwani,25.05,61.7417,80.55,68,100,12.39,PK,overcast clouds
332,Mayo,38.8876,-76.5119,55.4,62,20,5.64,US,few clouds
333,San Cataldo,37.4841,13.9854,45.0,87,94,5.99,IT,light rain
334,Trincomalee,8.5711,81.2335,78.57,85,100,10.51,LK,overcast clouds
335,Koumac,-20.5667,164.2833,81.36,66,100,4.34,NC,overcast clouds
336,Jardim,-21.4803,-56.1381,74.5,57,41,2.19,BR,scattered clouds
337,Lagoa,39.05,-27.9833,60.67,85,100,10.8,PT,overcast clouds
338,Yarensk,62.1675,49.0916,25.97,74,12,2.08,RU,few clouds
339,Kalmunai,7.4167,81.8167,79.07,80,85,4.0,LK,overcast clouds
340,Lushoto,-4.7833,38.2833,57.52,98,100,4.45,TZ,moderate rain
341,Houma,29.5958,-90.7195,64.99,72,40,8.05,US,scattered clouds
342,Vanimo,-2.6741,141.3028,84.88,65,41,4.07,PG,moderate rain
343,Quatre Cocos,-20.2078,57.7625,78.8,83,75,9.22,MU,light rain
344,Kutum,14.2,24.6667,70.2,9,17,3.4,SD,few clouds
345,Assare,-6.8744,-39.875,69.37,97,99,2.71,BR,overcast clouds
346,Roald,62.5833,6.1333,43.0,87,18,5.75,NO,few clouds
347,Maningrida,-12.0667,134.2667,84.56,59,100,11.79,AU,overcast clouds
348,Bowen,-20.0167,148.2333,80.6,69,40,19.57,AU,scattered clouds
349,Arlit,18.7369,7.3853,84.04,6,100,6.22,NE,overcast clouds
350,Okha,53.5739,142.9478,31.48,98,100,23.11,RU,snow
351,Guiratinga,-16.3494,-53.7583,74.55,69,51,2.91,BR,broken clouds
352,Turukhansk,65.8167,87.9833,11.7,81,92,10.27,RU,overcast clouds
353,Ulagan,50.6321,87.9563,39.38,52,17,5.95,RU,few clouds
354,Lerwick,60.1545,-1.1494,44.6,87,100,11.5,GB,overcast clouds
355,Doha,25.2867,51.5333,80.6,34,0,6.91,QA,clear sky
356,Marrakesh,31.6315,-8.0083,62.6,67,20,3.44,MA,few clouds
357,Cairns,-16.9167,145.7667,75.2,100,90,8.05,AU,moderate rain
358,Plouzane,48.3833,-4.6167,48.2,66,0,3.44,FR,clear sky
359,Panevezys,55.7333,24.35,41.0,52,0,6.91,LT,clear sky
360,Brae,60.3964,-1.353,44.6,87,100,11.5,GB,overcast clouds
361,Iskateley,67.6803,53.1512,20.21,88,100,12.46,RU,overcast clouds
362,Bathsheba,13.2167,-59.5167,78.8,61,40,19.57,BB,scattered clouds
363,Pangai,-19.8,-174.35,82.4,65,40,4.61,TO,scattered clouds
364,Conway,35.0887,-92.4421,55.99,82,20,4.61,US,few clouds
365,Marawi,7.9986,124.2928,84.99,64,100,7.0,PH,overcast clouds
366,Fortuna,40.5982,-124.1573,57.99,93,1,10.36,US,clear sky
367,Kozulka,50.0351,23.797,44.6,87,90,2.24,UA,overcast clouds
368,Iglesias,39.3114,8.535,44.01,87,20,2.3,IT,few clouds
369,Guozhen,34.3659,107.359,62.71,58,37,4.0,CN,scattered clouds
370,Hobyo,5.3505,48.5268,82.31,72,23,8.43,SO,few clouds
371,Magan,39.9683,-3.931,55.0,57,0,3.44,ES,clear sky
372,Morant Bay,17.8815,-76.4093,82.4,69,20,23.02,JM,few clouds
373,Muroto,33.2833,134.15,62.6,48,0,11.5,JP,clear sky
374,Adre,13.4667,22.2,76.77,10,94,9.13,TD,overcast clouds
375,Pelym,61.0108,61.9978,21.29,58,10,4.54,RU,clear sky
376,Blanquefort,44.9125,-0.6366,44.01,93,0,3.44,FR,clear sky
377,Neftekamsk,56.092,54.2703,30.24,48,58,14.2,RU,broken clouds
378,Erenhot,43.6475,111.9767,50.94,29,100,20.65,CN,overcast clouds
379,Banjar,-8.19,114.9675,82.4,89,40,2.3,ID,scattered clouds
380,Mackay,-21.15,149.2,79.0,73,75,17.27,AU,broken clouds
381,Aanekoski,62.6946,25.818,28.4,86,0,1.14,FI,clear sky
382,Aracati,-4.5617,-37.7697,77.38,84,96,9.1,BR,overcast clouds
383,Chara,56.9064,118.2631,11.32,67,23,3.47,RU,few clouds
384,Kostyantynivka,48.5277,37.7069,45.46,77,92,3.89,UA,overcast clouds
385,Talaya,61.3833,152.75,28.29,92,83,2.01,RU,broken clouds
386,Palmer,42.1584,-72.3287,53.6,62,90,4.61,US,light intensity drizzle
387,Petropavlovsk-Kamchatskiy,53.0452,158.6483,39.2,70,20,17.9,RU,few clouds
388,Avera,33.194,-82.5271,66.2,52,1,4.18,US,clear sky
389,Leshukonskoye,64.8989,45.7622,25.59,81,86,3.24,RU,overcast clouds
390,Kasungu,-13.0333,33.4833,57.04,94,7,5.95,MW,clear sky
391,Panlaitan,12.1191,119.8486,84.2,69,100,13.27,PH,overcast clouds
392,Maragogi,-9.0122,-35.2225,77.2,84,100,6.38,BR,overcast clouds
393,Vestmannaeyjar,63.4427,-20.2734,39.42,58,97,18.9,IS,overcast clouds
394,Biltine,14.5333,20.9167,82.83,9,100,8.23,TD,overcast clouds
395,Avon,41.4517,-82.0354,53.01,71,90,9.22,US,overcast clouds
396,Mecca,21.4267,39.8261,84.36,28,5,5.17,SA,clear sky
397,Inuvik,68.3499,-133.7218,48.2,37,16,6.91,CA,few clouds
398,Soddy-Daisy,35.2359,-85.1908,60.01,47,100,4.92,US,overcast clouds
399,Sturgeon Bay,44.8342,-87.377,48.2,61,1,12.66,US,clear sky
400,Nangong,37.3581,115.3744,66.25,36,4,10.4,CN,clear sky
401,Rocha,-34.4833,-54.3333,58.42,93,87,6.31,UY,overcast clouds
402,Ust-Kuyga,70.0167,135.6,13.01,83,93,4.21,RU,overcast clouds
403,Bindura,-17.3019,31.3306,55.0,84,82,3.0,ZW,broken clouds
404,Bumba,2.1833,22.4667,70.66,97,100,1.52,CD,light rain
405,Saint-Georges,12.0564,-61.7485,80.6,74,40,17.27,GD,scattered clouds
406,Lakes Entrance,-37.8811,147.981,68.0,53,0,1.99,AU,clear sky
407,Mananjary,-21.2167,48.3333,68.67,79,100,6.64,MG,overcast clouds
408,Sargatskoye,55.6101,73.4972,16.14,53,43,15.61,RU,scattered clouds
409,Castleisland,52.2333,-9.4667,48.2,87,75,12.66,IE,broken clouds
410,Cap Malheureux,-19.9842,57.6142,78.01,82,20,5.01,MU,few clouds
411,Erzin,36.9559,36.2,71.01,63,100,15.01,TR,overcast clouds
412,Digby,44.6169,-65.7655,41.0,93,90,2.3,CA,overcast clouds
413,Ust-Barguzin,53.45,108.9833,28.29,57,96,4.72,RU,overcast clouds
414,Guerrero Negro,27.9769,-114.0611,64.31,69,0,17.96,MX,clear sky
415,Dunedin,-45.8742,170.5036,62.01,58,79,13.0,NZ,broken clouds
416,Pochutla,15.7432,-96.4661,82.4,69,90,4.25,MX,overcast clouds
417,Kamenka,51.3223,42.7678,48.52,68,100,5.86,RU,moderate rain
418,Mananara,-16.1667,49.7667,72.64,92,100,9.78,MG,light rain
419,Half Moon Bay,37.4636,-122.4286,77.0,87,90,10.36,US,mist
420,Methoni,36.8197,21.7049,57.99,87,100,4.61,GR,overcast clouds
421,Beatrice,40.2681,-96.747,55.99,43,1,4.61,US,clear sky
422,Kodinsk,58.6881,99.1844,29.62,79,29,9.46,RU,scattered clouds
423,Phek,25.6667,94.5,55.18,71,89,1.99,IN,overcast clouds
424,Iwanai,42.9744,140.5089,42.66,96,100,12.5,JP,overcast clouds
425,Storforshei,66.4043,14.5233,36.0,78,5,1.99,NO,clear sky
426,Severo-Kurilsk,50.6789,156.125,35.19,96,100,27.98,RU,moderate rain
427,Phuket,8.0,98.25,87.01,89,75,2.3,TH,light rain
428,Porto Novo,6.4965,2.6036,75.2,94,20,4.61,BJ,few clouds
429,Bontang,0.1333,117.5,77.94,86,100,8.23,ID,overcast clouds
430,Catabola,-12.15,17.2833,61.39,89,69,2.98,AO,broken clouds
431,San Francisco,37.7749,-122.4194,66.0,55,20,26.46,US,few clouds
432,Taganak,6.0833,118.3,84.2,65,20,4.61,PH,few clouds
433,Rongcheng,30.634,117.8517,66.99,54,5,2.91,CN,clear sky
434,Tutoia,-2.7619,-42.2744,77.95,88,100,9.75,BR,moderate rain
435,Bandarban,22.1965,92.2262,75.99,76,1,2.26,BD,clear sky
436,Concepcion Del Oro,24.6333,-101.4167,67.5,15,99,5.23,MX,overcast clouds
437,Beyneu,45.3167,55.2,62.49,46,100,17.36,KZ,overcast clouds
438,Leiyang,26.4024,112.8591,58.42,95,100,2.84,CN,overcast clouds
439,Kushima,31.4583,131.2333,62.6,29,0,5.75,JP,clear sky
440,Ulaanbaatar,47.9077,106.8832,42.8,45,40,4.47,MN,scattered clouds
441,Broken Hill,-31.95,141.4333,66.2,39,0,4.61,AU,clear sky
442,Porto Santo,33.072,-16.3415,60.8,72,20,6.91,PT,few clouds
443,Kontagora,10.3999,5.4695,82.78,48,96,5.06,NG,overcast clouds
444,Lata,40.1629,-8.3327,59.0,89,100,1.07,PT,overcast clouds
445,Senigallia,43.7093,13.2167,44.01,87,20,3.44,IT,few clouds
446,Utinga,-5.8172,-35.3954,77.0,94,40,2.3,BR,scattered clouds
447,Comodoro Rivadavia,-45.8667,-67.5,66.2,52,0,3.44,AR,clear sky
448,Birjand,32.8663,59.2211,51.8,35,40,4.61,IR,scattered clouds
449,Palauig,15.435,119.9045,83.12,70,99,4.94,PH,overcast clouds
450,Starosubkhangulovo,53.1031,57.4423,31.05,54,100,14.83,RU,overcast clouds
451,Mehamn,71.0357,27.8492,34.03,78,99,13.38,NO,overcast clouds
452,Calama,-22.4667,-68.9333,57.2,24,0,11.5,CL,clear sky
453,Laje,-10.1833,-40.9667,72.03,76,65,3.44,BR,broken clouds
454,Shizunai,42.3339,142.3669,41.36,89,83,21.25,JP,broken clouds
455,San Carlos De Bariloche,-41.1456,-71.3082,53.6,87,75,12.66,AR,broken clouds
456,Naze,28.3667,129.4833,69.8,52,20,16.11,JP,few clouds
457,Belmonte,-15.8631,-38.8828,75.2,88,0,4.61,BR,clear sky
458,Lunenburg,44.3835,-64.3155,41.0,87,100,14.97,CA,overcast clouds
459,Rudkobing,54.9364,10.7102,46.4,76,75,1.14,DK,broken clouds
460,San Jeronimo,-11.9472,-75.2829,48.72,84,82,4.65,PE,broken clouds
461,Bakel,14.905,-12.4568,93.9,16,99,8.59,SN,overcast clouds
462,Pingliang,35.5392,106.6861,56.66,63,2,2.17,CN,clear sky
463,Port Keats,-14.25,129.55,83.82,34,77,11.95,AU,broken clouds
464,Rio Rancho,35.2334,-106.6645,57.0,34,89,4.79,US,overcast clouds
465,Boden,65.8252,21.6886,32.0,80,39,2.3,SE,scattered clouds
466,Tuatapere,-46.1333,167.6833,58.55,70,94,6.24,NZ,overcast clouds
467,Santiago Del Estero,-27.7951,-64.2615,78.1,55,100,10.31,AR,overcast clouds
468,Katrineholm,58.9959,16.2072,39.2,64,11,1.14,SE,few clouds
469,Tambura,5.6,27.4667,71.46,80,99,4.29,SS,overcast clouds
470,Marzuq,14.4,46.4667,68.58,55,100,2.3,YE,overcast clouds
471,Ambulu,-8.345,113.6058,79.92,78,39,1.43,ID,scattered clouds
472,Vung Tau,10.346,107.0843,82.22,69,25,4.0,VN,scattered clouds
473,Naryan-Mar,67.6713,53.087,20.34,88,100,12.48,RU,overcast clouds
474,Birao,10.2849,22.7882,78.31,14,100,4.92,CF,overcast clouds
475,Ekhinos,41.2833,24.9667,57.0,70,100,4.0,GR,overcast clouds
476,San Policarpo,12.1791,125.5072,75.63,90,100,29.51,PH,moderate rain
477,Pevek,69.7008,170.3133,28.45,79,100,7.47,RU,overcast clouds
478,Les Cayes,18.2,-73.75,76.46,83,5,7.76,HT,clear sky
479,Kinablangan,7.6947,126.5503,86.2,59,100,4.47,PH,light rain
480,Akyab,20.15,92.9,79.23,74,0,5.59,MM,clear sky
481,Linjiang,41.8069,126.9078,58.59,30,19,6.6,CN,few clouds
482,Blyth,55.1271,-1.5086,37.0,100,13,1.14,GB,few clouds
483,Aswan,24.0934,32.907,82.0,32,0,9.53,EG,clear sky
484,Alice Springs,-23.7,133.8833,66.2,26,0,11.5,AU,clear sky
485,Firovo,57.4814,33.7021,39.74,85,96,7.18,RU,overcast clouds
486,Sanary-Sur-Mer,43.1178,5.8001,46.99,81,0,6.91,FR,clear sky
487,Chapais,49.7834,-74.8492,39.2,70,90,5.75,CA,overcast clouds
488,That Phanom,16.9364,104.7104,80.6,83,40,2.3,TH,scattered clouds
489,Kota Kinabalu,5.9749,116.0724,84.2,61,20,11.5,MY,few clouds
490,Solnechnyy,50.7214,136.6319,35.42,94,100,10.71,RU,overcast clouds
491,Wilmington,34.2257,-77.9447,62.6,77,1,3.44,US,clear sky
492,Ngaoundere,7.3167,13.5833,67.23,81,83,4.61,CM,broken clouds
493,Bousso,10.4795,16.7117,89.44,15,100,4.56,TD,overcast clouds
494,Dwarka,22.2394,68.9678,79.52,81,85,12.8,IN,overcast clouds
495,Isla Mujeres,21.2311,-86.731,81.0,83,75,13.8,MX,broken clouds
496,Constitucion,-35.3333,-72.4167,54.7,77,13,4.61,CL,few clouds
497,Ambon,-3.6954,128.1814,77.0,94,40,5.75,ID,light rain
498,Kulykiv,50.3142,24.8176,44.01,85,100,1.01,UA,overcast clouds
499,Iralaya,15.0,-83.2333,82.4,83,75,5.75,HN,broken clouds
500,Bandarbeyla,9.4942,50.8122,81.91,78,6,11.1,SO,clear sky
501,Warrington,53.3925,-2.5802,46.0,83,58,4.74,GB,broken clouds
502,Pontal Do Parana,-25.6533,-48.5128,57.99,84,38,18.99,BR,scattered clouds
503,Saint Anthony,45.0205,-93.218,46.4,76,90,17.27,US,light rain
504,Hami,42.8,93.45,60.78,26,80,14.16,CN,broken clouds
505,Hagere Hiywet,8.9833,37.85,58.62,81,91,5.3,ET,overcast clouds
506,Numan,9.4667,12.0333,85.42,54,94,11.03,NG,overcast clouds
507,Baneh,35.9975,45.8853,52.65,59,98,2.62,IR,overcast clouds
508,Terre Haute,39.4667,-87.4139,53.6,66,90,4.27,US,overcast clouds
509,Makasar,-5.14,119.4221,82.4,74,20,2.3,ID,few clouds
510,Zapolyarnyy,69.4154,30.8136,32.0,80,100,10.36,RU,overcast clouds
511,Miandrivazo,-19.5167,45.4667,71.31,88,35,1.32,MG,scattered clouds
512,Longyearbyen,78.2186,15.6401,28.4,93,90,9.22,SJ,light snow
513,Semey,50.4111,80.2275,41.0,75,40,17.9,KZ,scattered clouds
514,Massaguet,12.4755,15.4365,85.71,8,94,8.28,TD,overcast clouds
515,Sananduva,-27.9497,-51.8067,60.35,89,76,8.37,BR,broken clouds
516,Pokosnoye,55.5258,101.0536,31.91,63,71,9.28,RU,broken clouds
517,Broome,42.2506,-75.833,48.2,57,90,5.75,US,overcast clouds
518,Aksu,41.1231,80.2644,61.25,38,100,4.65,CN,overcast clouds
519,Zhigalovo,54.8097,105.1578,31.75,63,93,4.32,RU,overcast clouds
520,Vaitape,-16.5167,-151.75,82.67,69,0,13.2,PF,clear sky
521,Asosa,10.0667,34.5333,72.0,17,100,2.01,ET,overcast clouds
522,Berlevag,70.8578,29.0864,35.26,83,95,16.24,NO,overcast clouds
523,Nuevo Progreso,23.1667,-97.95,66.0,52,10,1.99,MX,clear sky
524,Cumberland,35.0502,-78.8664,63.0,51,1,3.44,US,clear sky
525,Tibu,8.639,-72.7358,74.89,96,100,3.22,CO,overcast clouds
526,Northam,51.0333,-4.2167,44.01,46,99,4.81,GB,overcast clouds
527,Spearfish,44.4908,-103.8594,33.8,93,75,10.36,US,snow
528,Naron,43.5167,-8.1528,57.0,76,0,2.8,ES,clear sky
529,Tessalit,20.1986,1.0114,81.3,12,0,13.89,ML,clear sky
530,Yelizovo,53.1873,158.3805,39.2,70,20,17.9,RU,few clouds
531,Yakeshi,49.2833,120.7333,33.13,42,0,14.18,CN,clear sky
532,Walvis Bay,-22.9575,14.5053,84.99,42,25,5.99,NA,scattered clouds
533,Salym,60.0625,71.4789,12.31,74,72,9.48,RU,broken clouds
534,Peniche,39.3558,-9.3811,57.0,88,100,1.99,PT,overcast clouds
535,Sola,-13.8833,167.55,87.8,79,40,4.61,VU,scattered clouds
536,Nassau,40.7507,-73.5829,53.01,71,90,5.75,US,overcast clouds
537,Inta,66.0317,60.1659,10.72,95,100,7.25,RU,overcast clouds
538,Hwange,-18.3693,26.5019,58.28,70,0,2.59,ZW,clear sky
539,Buala,-8.145,159.5921,85.33,69,78,4.59,SB,light rain
540,Changping,40.2186,116.2197,66.2,39,0,2.24,CN,clear sky
541,Kysyl-Syr,63.8986,122.7617,16.39,87,100,5.53,RU,overcast clouds
542,Prado,-17.3411,-39.2208,75.65,88,43,9.26,BR,scattered clouds
543,Bahia Honda,22.9036,-83.1592,78.57,79,0,8.68,CU,light rain
544,Porto Walter,-8.2686,-72.7439,76.41,84,100,2.77,BR,overcast clouds
545,Puerto Ayacucho,5.6639,-67.6236,79.65,77,97,3.98,VE,overcast clouds
546,Port Augusta,-32.5,137.7667,68.0,42,0,8.05,AU,clear sky
547,Manta,-0.95,-80.7333,78.8,78,20,2.3,EC,few clouds
548,Biu,10.6129,12.1946,80.98,42,82,7.83,NG,broken clouds
549,Chicama,-7.8447,-79.1469,66.2,88,40,11.5,PE,scattered clouds
550,Totness,5.8833,-56.3167,77.68,80,66,11.86,SR,broken clouds
551,Wau,7.7029,27.9953,79.5,50,100,3.53,SS,overcast clouds
552,Rio Gallegos,-51.6226,-69.2181,51.8,66,0,3.44,AR,clear sky
553,Gizo,-8.103,156.8419,81.61,79,77,14.41,SB,broken clouds
554,Beidao,34.5686,105.8933,57.15,70,98,0.45,CN,overcast clouds
555,Batemans Bay,-35.7167,150.1833,66.99,70,7,1.99,AU,clear sky
556,Kiruna,67.8557,20.2251,30.2,64,45,6.91,SE,scattered clouds
557,Atambua,-9.1061,124.8925,79.52,61,100,2.93,ID,overcast clouds
558,Mao,39.8885,4.2658,53.6,66,0,10.36,ES,clear sky
559,Adrar,20.5022,-10.0711,76.62,11,92,7.29,MR,overcast clouds
560,Camacha,33.0833,-16.3333,60.8,72,20,6.91,PT,few clouds
561,Toamasina,-18.1667,49.3833,69.8,94,75,11.5,MG,broken clouds
562,Iquique,-20.2208,-70.1431,66.2,77,75,8.05,CL,broken clouds
563,San Miguelito,9.0333,-79.5,77.0,94,75,2.3,PA,broken clouds
564,Colorines,19.2,-100.1667,68.0,8,1,13.8,MX,clear sky
565,Victoria Point,-27.5833,153.3,75.0,61,0,3.0,AU,clear sky
566,Alto Lucero,19.6167,-96.7167,64.22,81,100,4.14,MX,overcast clouds
567,Olinda,-8.0089,-34.8553,73.4,88,20,7.47,BR,few clouds
568,Ust-Nera,64.5667,143.2,18.09,80,100,6.69,RU,overcast clouds
569,Rumphi,-11.0186,33.8575,62.17,92,100,3.15,MW,overcast clouds
570,Lappeenranta,61.0587,28.1887,37.99,75,0,4.61,FI,clear sky
571,Vardo,70.3705,31.1107,35.89,84,94,17.54,NO,overcast clouds
572,Shache,38.4167,77.2406,56.34,49,100,9.69,CN,overcast clouds
573,Lafiagi,8.8667,5.4167,82.45,57,100,5.77,NG,overcast clouds
574,Lebanon,36.2081,-86.2911,60.8,51,90,7.0,US,overcast clouds
575,Batticaloa,7.7102,81.6924,78.8,82,80,5.19,LK,broken clouds
576,Mosquera,4.7059,-74.2302,55.4,94,40,2.3,CO,scattered clouds
577,Bouake,7.6895,-5.0218,75.2,83,40,13.8,CI,scattered clouds
578,Skibotn,69.3913,20.2679,39.2,60,0,6.91,NO,clear sky
579,Hope,33.6671,-93.5916,57.2,72,1,3.8,US,clear sky
580,Port Hedland,-20.3167,118.5667,84.2,18,0,12.66,AU,clear sky
581,Carutapera,-1.195,-46.02,75.9,93,99,4.5,BR,overcast clouds
582,Bossangoa,6.4926,17.4552,76.6,66,100,4.63,CF,overcast clouds
583,Ballina,-28.8667,153.5667,71.6,60,7,8.05,AU,clear sky
584,Ceres,37.5949,-120.9577,84.99,9,1,13.8,US,clear sky
585,Aykhal,66.0,111.5,5.85,78,33,2.62,RU,scattered clouds
586,Raga,8.4596,25.678,79.45,46,99,5.44,SS,overcast clouds
587,Zabaykalsk,49.6333,117.3167,34.23,14,0,13.71,RU,clear sky
588,Yerbogachen,61.2767,108.0108,24.87,71,90,8.34,RU,overcast clouds
589,Navalgund,15.5667,75.3667,73.4,88,40,5.75,IN,scattered clouds
590,Bethel,41.3712,-73.414,53.6,54,90,4.61,US,overcast clouds
591,Maralal,1.0968,36.698,57.29,87,48,4.65,KE,scattered clouds
592,Ambilobe,-13.2,49.05,72.25,88,5,3.13,MG,clear sky
593,La Palma,33.8464,-118.0467,82.4,16,1,16.11,US,clear sky
594,Gubkinskiy,64.434,76.5026,-7.89,95,8,14.92,RU,clear sky
595,Velizh,55.6056,31.1967,39.0,85,5,4.85,RU,clear sky
596,Keuruu,62.2667,24.7,30.2,80,0,1.14,FI,clear sky
597,Buchanan,5.8808,-10.0467,80.71,82,17,7.74,LR,few clouds
598,Aklavik,68.2191,-135.0107,48.2,37,47,6.91,CA,scattered clouds
599,San Andres,12.5847,-81.7006,82.4,83,40,8.05,CO,scattered clouds
600,Sao Miguel Do Guama,-1.6267,-47.4833,73.67,96,100,2.33,BR,moderate rain
601,Plateros,23.2167,-102.85,75.2,10,1,23.02,MX,clear sky
602,Yarmouth,41.7057,-70.2286,50.0,71,75,6.91,US,broken clouds
603,Barra Patuca,15.8,-84.2833,81.25,82,100,15.59,HN,overcast clouds
604,Samsun,41.25,36.3333,63.0,82,75,12.66,TR,broken clouds
605,La Romana,18.4273,-68.9728,75.2,94,20,4.61,DO,few clouds
606,Floriano,-6.7669,-43.0225,74.93,89,100,3.98,BR,overcast clouds
607,Palasa,18.7667,84.4167,79.92,88,13,6.4,IN,few clouds
608,Khuzdar,27.7384,66.6434,68.7,28,100,4.23,PK,overcast clouds
609,Fuyang,32.9,115.8167,61.81,50,0,6.6,CN,clear sky
610,Aripuana,-9.1667,-60.6333,72.25,98,99,0.76,BR,overcast clouds
611,Port Blair,11.6667,92.75,82.62,72,16,5.97,IN,few clouds
612,Jos,9.9167,8.9,70.93,65,97,5.53,NG,overcast clouds
613,Olafsvik,64.8945,-23.7142,35.06,58,99,12.82,IS,overcast clouds
614,Amvrosiyivka,47.7935,38.4777,44.8,83,94,3.4,UA,overcast clouds
615,Humaita,-7.5061,-63.0208,72.99,97,54,2.59,BR,broken clouds
616,Kafue,-15.7691,28.1814,53.6,87,0,4.61,ZM,clear sky
617,Lisakovsk,52.5369,62.4936,28.17,51,21,16.6,KZ,few clouds
618,Seminole,28.7086,-81.2081,73.99,88,20,3.44,US,few clouds
619,Moron,-34.6534,-58.6198,69.01,94,85,6.33,AR,overcast clouds
620,Bodrum,37.0383,27.4292,64.4,67,75,6.91,TR,broken clouds
621,Kanigoro,-8.13,112.219,79.63,78,21,7.43,ID,few clouds
622,Edd,13.9297,41.6925,86.47,35,82,13.56,ER,broken clouds
623,Dingle,10.9995,122.6711,81.21,69,100,3.78,PH,overcast clouds
624,Kavaratti,10.5669,72.642,83.37,72,14,6.69,IN,few clouds
625,Lokosovo,61.1333,74.8167,5.23,84,93,12.66,RU,overcast clouds
626,Yeppoon,-23.1333,150.7333,78.8,50,49,8.05,AU,scattered clouds
627,Pozo Colorado,-23.4923,-58.7972,74.62,53,0,6.42,PY,clear sky
628,Asyut,27.181,31.1837,82.4,32,0,8.05,EG,clear sky
629,Ilam,26.9167,87.9167,64.81,58,0,3.49,NP,clear sky
630,Selikhino,50.3672,137.4996,43.88,72,100,15.7,RU,light rain
631,Kanash,55.5086,47.4956,33.8,51,0,11.18,RU,clear sky
632,Pa Sang,18.5262,98.9394,82.99,83,40,3.44,TH,scattered clouds
633,Dallas,32.7668,-96.7836,64.99,32,20,6.91,US,few clouds
634,Uspenka,48.3903,39.1619,48.78,78,80,0.63,UA,broken clouds
635,Leon,21.1167,-101.6667,82.4,8,1,9.22,MX,clear sky
636,Rokupr,8.6717,-12.395,80.11,80,88,3.0,SL,moderate rain
637,Aktau,43.65,51.2,48.2,100,75,2.24,KZ,broken clouds
638,Manzanillo,20.3433,-77.1167,80.67,60,100,5.1,CU,light rain
639,Graciano Sanchez,23.9167,-99.2833,64.72,52,17,5.75,MX,few clouds
640,La Baule-Escoublac,47.2922,-2.364,41.0,81,0,8.66,FR,clear sky
641,Curillo,1.0333,-75.9191,73.0,96,100,2.26,CO,overcast clouds
642,Progreso,21.2833,-89.6667,77.0,83,75,5.75,MX,broken clouds
643,San Juan,-31.5375,-68.5364,76.55,50,98,0.47,AR,overcast clouds
644,Oranjestad,12.524,-70.027,80.6,74,20,23.02,AW,few clouds
645,Nishihara,26.1842,127.7558,71.6,52,75,11.5,JP,broken clouds
646,Kudahuvadhoo,2.6708,72.8944,82.56,64,44,9.82,MV,scattered clouds
647,Baghmara,23.795,86.2085,82.4,17,0,3.51,IN,clear sky
648,Asekeyevo,53.5742,52.7972,39.34,72,22,13.22,RU,few clouds
649,Sovetskiy,61.3614,63.5842,15.48,77,4,5.84,RU,clear sky
650,Insar,53.8653,44.3738,42.73,82,100,12.57,RU,overcast clouds
651,Fort Nelson,58.8053,-122.7002,51.8,28,1,2.13,CA,clear sky
652,Khromtau,50.2503,58.4347,39.13,66,100,20.54,KZ,overcast clouds
653,Kurilsk,45.2333,147.8833,39.38,94,100,14.09,RU,overcast clouds
654,Awassa,7.05,38.4667,61.81,88,100,3.53,ET,light rain
655,Robertsport,6.7533,-11.3686,82.11,78,18,6.17,LR,few clouds
656,Georgiyevskoye,58.731,45.024,28.62,80,13,8.25,RU,few clouds
657,Loreto,22.2667,-101.9667,74.62,8,0,16.49,MX,clear sky
658,Nouadhibou,20.931,-17.0347,66.2,77,0,16.11,MR,clear sky
659,Chapada Dos Guimaraes,-15.4606,-55.7497,75.2,88,40,2.3,BR,scattered clouds
660,Mayumba,-3.432,10.6554,77.68,89,100,4.43,GA,overcast clouds
661,Najran,17.4924,44.1277,68.0,26,0,2.39,SA,clear sky
662,Sobolevo,54.4299,31.8996,41.32,87,97,9.1,RU,overcast clouds
663,Sao Joao Da Barra,-21.6403,-41.0511,74.59,85,10,2.62,BR,light rain
664,Rosarito,32.3333,-117.0333,80.6,13,1,23.02,MX,clear sky
665,Ewa Beach,21.3156,-158.0072,84.2,39,1,6.91,US,clear sky
666,Sangar,63.9242,127.4739,16.88,87,100,4.92,RU,overcast clouds
667,Hojai,26.0,92.8667,72.32,79,74,4.29,IN,broken clouds
668,Verkhoyansk,67.5447,133.385,15.08,58,85,1.32,RU,overcast clouds
669,Anchorage,61.2181,-149.9003,55.4,33,40,5.75,US,scattered clouds
670,Olga,43.7444,135.2892,57.72,37,5,14.9,RU,clear sky
671,Bitung,1.4451,125.1824,86.0,66,20,5.75,ID,few clouds
672,Emerald,-23.5333,148.1667,77.0,36,0,8.05,AU,clear sky
673,Nampula,-15.1165,39.2666,64.4,94,40,8.05,MZ,scattered clouds
674,Price,39.5994,-110.8107,59.0,18,1,8.05,US,clear sky
675,Oxbow,49.2333,-102.1676,30.0,64,100,10.0,CA,overcast clouds
676,Nanchang,28.6833,115.8833,60.35,71,100,1.32,CN,overcast clouds
677,Mae Sai,20.4335,99.8762,78.01,100,75,0.38,TH,broken clouds
678,Jurado,7.1053,-77.7641,78.15,85,100,3.49,CO,overcast clouds
679,Baherove,45.3742,36.2971,48.96,93,100,2.82,UA,overcast clouds
680,Lake City,30.1897,-82.6393,66.99,94,75,2.59,US,moderate rain
681,Prieska,-29.6641,22.7474,65.79,34,0,3.6,ZA,clear sky
682,Isangel,-19.55,169.2667,82.4,74,75,6.91,VU,broken clouds
683,Kedrovyy,56.1667,91.8167,33.8,93,75,6.71,RU,snow
684,Coronado,32.6859,-117.1831,80.6,22,1,20.71,US,clear sky
685,Codrington,-38.2667,141.9667,62.8,65,100,13.6,AU,overcast clouds
686,Sorland,67.667,12.6934,43.83,78,0,23.29,NO,clear sky
687,Ormara,25.2088,64.6357,80.17,69,99,14.45,PK,overcast clouds
688,Yaan,7.3833,8.5667,78.21,73,100,9.37,NG,overcast clouds
689,Salinopolis,-0.6136,-47.3561,77.56,85,100,4.61,BR,overcast clouds
690,Sabang,5.8933,95.3214,82.76,74,100,15.39,ID,overcast clouds
691,Gornopravdinsk,60.05,69.9,13.59,76,84,7.25,RU,broken clouds
692,Taquari,-29.7997,-51.8644,68.0,89,6,1.01,BR,clear sky
693,Manono,-7.3,27.4167,68.18,83,96,4.88,CD,overcast clouds
694,Sambava,-14.2667,50.1667,76.15,89,90,15.43,MG,light rain
695,Gladstone,-23.85,151.25,77.0,50,75,6.91,AU,light rain
696,Kemin,42.7846,75.6892,47.35,69,66,4.79,KG,broken clouds
697,Goderich,43.7501,-81.7165,41.0,75,10,5.75,CA,clear sky
698,Kamina,-8.7386,24.9906,62.22,86,49,6.24,CD,scattered clouds
699,Plettenberg Bay,-34.0527,23.3716,65.89,66,6,12.12,ZA,clear sky
700,Tygda,53.1167,126.3333,32.5,47,6,16.82,RU,clear sky
701,Santa Fe,-31.6333,-60.7,73.0,76,0,5.01,AR,clear sky
702,Zyryanovsk,49.7386,84.2719,37.96,81,100,0.76,KZ,overcast clouds
703,Skibbereen,51.55,-9.2667,46.4,93,75,9.22,IE,light rain
704,Pokhara,28.2333,83.9833,70.0,24,0,4.94,NP,clear sky
705,Panama City,8.9936,-79.5197,77.0,94,75,2.3,PA,broken clouds
706,Waddan,29.1614,16.139,61.14,66,37,10.09,LY,scattered clouds
707,Karpathos,35.507,27.2132,66.2,63,100,8.05,GR,overcast clouds
708,Hueytown,33.4512,-86.9967,60.8,51,1,5.75,US,clear sky
709,Abu Samrah,35.3029,37.1841,73.76,28,100,6.98,SY,overcast clouds
